[{"name": "宸悦府", "coordinates": [120.100174, 35.991873999999996]}, {"name": "团结路齐长城路（原齐长城路）", "coordinates": [120.162195, 35.992589]}, {"name": "前湾港路昆仑山路②（原昆仑山路）", "coordinates": [120.13096599999999, 36.000958000000004]}, {"name": "开发区四中", "coordinates": [120.174025, 35.972338]}, {"name": "致远中学", "coordinates": [120.106796, 35.994926]}, {"name": "牛王庙", "coordinates": [120.142536, 35.997003]}, {"name": "牛王庙东", "coordinates": [120.146905, 35.997198]}, {"name": "西于家河", "coordinates": [120.16161100000001, 35.986259999999994]}, {"name": "北下庄", "coordinates": [120.110519, 35.995603]}, {"name": "山东科技大学", "coordinates": [120.120883, 35.999381]}, {"name": "太行山路香江路", "coordinates": [120.17199099999999, 35.96873]}, {"name": "保税港区东门②（原保税港区东门）", "coordinates": [120.174155, 35.974733]}, {"name": "西海岸汽车东站①", "coordinates": [120.176598, 35.950336]}, {"name": "广厦花园", "coordinates": [120.17107299999999, 35.976083]}, {"name": "香江路五台山路②（原中达化纤站）", "coordinates": [120.16856899999999, 35.971378]}, {"name": "井冈山路富春江路", "coordinates": [120.181731, 35.957931]}, {"name": "西海岸汽车东站", "coordinates": [120.176551, 35.951396]}, {"name": "山东科技大学西", "coordinates": [120.11536699999999, 35.997553]}, {"name": "车家岭东（原车家岭站）", "coordinates": [120.169874, 35.980328]}, {"name": "家佳源", "coordinates": [120.180679, 35.953173]}, {"name": "保税港区西门", "coordinates": [120.16736100000001, 35.984431]}, {"name": "中心医院", "coordinates": [120.18435600000001, 35.963145000000004]}, {"name": "薛家岛街道办事处", "coordinates": [120.20308899999999, 35.958424]}, {"name": "珠江路小学", "coordinates": [120.179479, 35.946891]}, {"name": "天目山路地铁站西（原泽润金融广场）", "coordinates": [120.21956200000001, 35.963229]}, {"name": "太行山路北江路（原北江路）", "coordinates": [120.171053, 35.96567]}, {"name": "五台山路大旭山路（原五台山路西于家河）", "coordinates": [120.164704, 35.984668]}, {"name": "滨海学院", "coordinates": [120.159702, 35.979898]}, {"name": "松花江路西", "coordinates": [120.134941, 35.995605]}, {"name": "黄浦江路太行山路（原红卫农贸市场站）", "coordinates": [120.172427, 35.959493]}, {"name": "龙湖原山", "coordinates": [120.103148, 35.994827]}, {"name": "青岛光谷软件园", "coordinates": [120.155998, 35.951776]}, {"name": "香江路太行山路", "coordinates": [120.17148600000002, 35.970313]}, {"name": "官厅市场", "coordinates": [120.17715700000001, 35.96165]}, {"name": "上庄社区西门", "coordinates": [120.099503, 35.992909999999995]}, {"name": "山东科技大学东", "coordinates": [120.127448, 36.000503]}, {"name": "海信工业园", "coordinates": [120.15489, 35.99793]}, {"name": "井冈山路地铁站", "coordinates": [120.184165, 35.954907]}, {"name": "丁家河", "coordinates": [120.19957600000001, 35.9587]}, {"name": "青岛光谷软件园南", "coordinates": [120.155301, 35.945886]}, {"name": "太行山路黄浦江路（原红卫农贸市场站）", "coordinates": [120.171676, 35.960148]}, {"name": "香江路一小", "coordinates": [120.185422, 35.966885999999995]}, {"name": "中康国际", "coordinates": [120.180241, 35.962474]}, {"name": "邦源纤维", "coordinates": [120.16158300000001, 36.000081]}, {"name": "盛世江山", "coordinates": [120.16038300000001, 35.951961]}, {"name": "唐岛湾小区", "coordinates": [120.17781000000001, 35.949017]}]