[{"name": "山东科技大学西", "coordinates": [120.11536699999999, 35.997553]}, {"name": "雷沃重工（原福田雷沃）", "coordinates": [120.187724, 36.029878000000004]}, {"name": "中集集装箱公司", "coordinates": [120.19815600000001, 36.034123]}, {"name": "港头李", "coordinates": [120.150397, 36.003393]}, {"name": "崇明岛路小学", "coordinates": [120.21628899999999, 36.041281]}, {"name": "华世洁环保", "coordinates": [120.107564, 36.009034]}, {"name": "柳沟", "coordinates": [120.21123600000001, 36.034904]}, {"name": "卧棚", "coordinates": [120.202828, 36.032275]}, {"name": "北海公园", "coordinates": [120.208954, 36.04292]}, {"name": "前湾港", "coordinates": [120.177503, 36.026526000000004]}, {"name": "洞庭山路卫津河路", "coordinates": [120.102433, 36.008922]}, {"name": "致远中学", "coordinates": [120.106796, 35.994926]}, {"name": "海信珠山小镇", "coordinates": [120.102827, 36.005642]}, {"name": "港头陈前①", "coordinates": [120.16001200000001, 36.006907]}, {"name": "薛家泊子社区", "coordinates": [120.15638799999999, 36.020623]}, {"name": "澳柯玛工业园", "coordinates": [120.14160600000001, 36.002701]}, {"name": "新街口西", "coordinates": [120.159144, 36.022564]}, {"name": "晨光园", "coordinates": [120.209805, 36.039891]}, {"name": "港头臧", "coordinates": [120.157541, 36.017325]}, {"name": "青岛超银学校", "coordinates": [120.105122, 36.018863]}, {"name": "前湾集", "coordinates": [120.217577, 36.047431]}, {"name": "前湾", "coordinates": [120.220656, 36.049685]}, {"name": "蜊叉泊", "coordinates": [120.146452, 36.003612]}, {"name": "刘公岛路灵山岛街（原灵山岛街）", "coordinates": [120.21592199999999, 36.04639]}, {"name": "卧棚北", "coordinates": [120.20253899999999, 36.036028]}, {"name": "黄岛油库", "coordinates": [120.225558, 36.050283]}, {"name": "怀玉山路", "coordinates": [120.100225, 35.997706]}, {"name": "中泽国货", "coordinates": [120.2112, 36.039286]}, {"name": "刘公岛路市场", "coordinates": [120.211754, 36.044053000000005]}, {"name": "黄河路批发市场东", "coordinates": [120.103873, 36.017288]}, {"name": "黄岛轮渡", "coordinates": [120.22780900000001, 36.050424]}, {"name": "龙湖原山", "coordinates": [120.103148, 35.994827]}, {"name": "港头刘", "coordinates": [120.156792, 36.005323]}, {"name": "前湾港路昆仑山路①（原前湾港路西）", "coordinates": [120.133901, 36.001701000000004]}, {"name": "山东科技大学", "coordinates": [120.120883, 35.999381]}, {"name": "山东科技大学东", "coordinates": [120.127448, 36.000503]}, {"name": "中医医院", "coordinates": [120.206175, 36.033335]}, {"name": "港头陈", "coordinates": [120.15886499999999, 36.011002000000005]}, {"name": "北下庄", "coordinates": [120.110519, 35.995603]}]